City,Latitude,Longitude,Max Temp,Humidity,Cloudiness,Wind Speed,Country,Date
Qaanaaq,77.48,-69.36,47.23,59,88,2.91,GL,1594592385
Halifax,44.65,-63.57,73.0,77,9,3.0,CA,1594592822
Thompson,55.74,-97.86,75.2,50,75,9.17,CA,1594592394
New Norfolk,-42.78,147.06,37.99,92,0,2.44,AU,1594592371
Pathein,16.78,94.73,79.38,87,100,6.38,MM,1594592916
Castro,-24.79,-50.01,60.8,77,4,7.31,BR,1594592916
Hithadhoo,-0.6,73.08,85.19,70,86,9.15,MV,1594592916
Rikitea,-23.12,-134.97,71.11,72,0,16.62,PF,1594592795
Vaini,-21.2,-175.2,73.4,73,20,12.75,TO,1594592709
Los Llanos de Aridane,28.66,-17.92,72.0,78,6,13.87,ES,1594592917
Chui,-33.7,-53.46,47.34,70,32,10.38,UY,1594592442
Luanda,-8.84,13.23,68.0,88,14,4.7,AO,1594592683
Pangnirtung,66.15,-65.71,49.1,62,56,2.35,CA,1594592744
Darhan,49.49,105.92,60.48,83,24,1.81,MN,1594592919
Nizhniy Odes,63.64,54.86,55.58,75,45,9.48,RU,1594592919
Samaná,19.21,-69.34,86.0,79,40,6.93,DO,1594592920
Ushuaia,-54.8,-68.3,35.6,93,40,17.22,AR,1594592920
Bud,39.45,-86.18,82.99,57,75,10.29,US,1594592744
Albany,42.6,-73.97,86.0,62,9,8.43,US,1594592921
Bredasdorp,-34.53,20.04,57.2,41,0,11.41,ZA,1594592391
Natal,-5.79,-35.21,73.4,83,20,4.7,BR,1594592750
Tasiilaq,65.61,-37.64,39.2,86,0,6.93,GL,1594592923
Kamenka,51.32,42.77,69.01,73,61,1.01,RU,1594592923
Hilo,19.73,-155.09,80.01,74,90,8.3,US,1594592381
Cape Town,-33.93,18.42,57.99,76,75,33.33,ZA,1594592714
Barrow,71.29,-156.79,37.4,94,90,8.05,US,1594592373
Dunedin,-45.87,170.5,44.01,66,0,13.0,NZ,1594592924
Port Alfred,-33.59,26.89,58.3,36,0,10.22,ZA,1594592812
Nikolskoye,59.7,30.79,53.6,81,86,1.63,RU,1594592925
Yellowknife,62.46,-114.35,69.01,59,75,4.7,CA,1594592926
Kruisfontein,-34.0,24.73,58.95,32,0,15.79,ZA,1594592926
Atuona,-9.8,-139.03,80.44,74,2,21.14,PF,1594592242
Norman Wells,65.28,-126.83,59.0,87,75,3.36,CA,1594592863
Tiksi,71.69,128.87,61.29,69,100,5.88,RU,1594592417
Esim,4.87,-2.24,75.07,87,49,7.61,GH,1594592928
Nanortalik,60.14,-45.24,47.12,88,100,9.73,GL,1594592928
Mulchén,-37.72,-72.23,46.4,100,90,5.82,CL,1594592928
Khovd,48.01,91.64,58.1,74,27,1.81,MN,1594592829
Sinazongwe,-17.26,27.46,64.99,33,0,1.23,ZM,1594592929
George Town,5.41,100.34,80.6,94,20,3.91,MY,1594592180
Lebu,-37.62,-73.65,49.73,89,100,5.3,CL,1594592930
Vila Velha,-20.33,-40.29,73.4,78,29,9.17,BR,1594592641
Lavaca,28.61,-96.63,95.0,59,1,13.87,US,1594592931
Kez,57.9,53.72,60.91,94,0,3.11,RU,1594592932
Watsa,3.04,29.54,63.73,100,99,1.3,CD,1594592932
Kapaa,22.08,-159.32,82.4,69,20,18.34,US,1594592679
Punta Arenas,-53.15,-70.92,35.6,84,75,20.8,CL,1594592930
College,64.86,-147.8,69.8,37,75,5.82,US,1594592816
Nizwá,22.93,57.53,86.95,52,43,1.43,OM,1594592934
Hays,30.05,-98.03,105.01,25,7,1.01,US,1594592934
Mataura,-46.19,168.86,39.0,83,90,3.0,NZ,1594592794
Whitehorse,60.72,-135.05,64.4,48,75,8.05,CA,1594592935
Vila Franca do Campo,37.72,-25.43,68.0,72,75,6.93,PT,1594592864
Lüderitz,-26.65,15.16,53.6,93,3,1.12,NA,1594592230
Petawawa,45.9,-77.33,75.99,53,90,6.42,CA,1594592795
Carnarvon,-24.87,113.63,55.4,87,40,5.82,AU,1594592798
Jamestown,42.1,-79.24,73.99,73,1,10.29,US,1594592792
Hobart,-42.88,147.33,39.2,93,75,10.29,AU,1594592836
Karratha,-20.74,116.85,59.59,32,35,14.76,AU,1594592874
Avarua,-21.21,-159.78,71.6,83,97,8.05,CK,1594592713
Hermanus,-34.42,19.23,55.0,85,20,24.0,ZA,1594592708
Samarai,-10.62,150.67,78.71,86,94,14.72,PG,1594592939
Hue,16.47,107.6,77.0,88,20,3.36,VN,1594592836
Santo Tomas,14.11,121.14,81.0,85,100,1.99,PH,1594592939
Belaya Gora,68.53,146.42,73.06,42,98,8.3,RU,1594592940
San Cristobal,7.77,-72.22,84.2,58,40,4.7,VE,1594592932
Plaster Rock,46.91,-67.39,80.6,65,1,10.29,CA,1594592883
Celestún,20.87,-90.4,85.35,68,10,11.9,MX,1594592941
Mandera,3.94,41.87,79.75,65,53,19.95,KE,1594592941
Rabo de Peixe,37.8,-25.58,68.0,72,75,6.93,PT,1594592942
Bluff,-46.6,168.33,39.0,83,87,3.0,NZ,1594592381
East London,-33.02,27.91,59.02,52,0,17.81,ZA,1594592941
Cap Malheureux,-19.98,57.61,72.0,75,5,7.0,MU,1594592943
Puerto Ayora,-0.74,-90.35,69.01,88,84,1.99,EC,1594592943
Kandrian,-6.22,149.55,78.58,86,100,3.27,PG,1594592944
Esperance,-33.87,121.9,48.2,61,0,19.46,AU,1594592940
Sinnamary,5.38,-52.95,78.51,88,53,9.86,GF,1594592945
Orlovskiy,46.87,42.06,76.8,53,47,4.36,RU,1594592945
Cherskiy,68.75,161.3,53.51,91,100,3.13,RU,1594592717
Lae,-6.72,146.98,77.95,69,63,6.89,PG,1594592946
Campoverde,-8.48,-74.81,87.8,55,40,3.36,PE,1594592947
Bubaque,11.28,-15.83,79.02,86,100,16.62,GW,1594592947
Pevek,69.7,170.31,48.78,71,75,4.68,RU,1594592773
Jacareacanga,-6.22,-57.75,82.15,63,96,0.76,BR,1594592948
Haines Junction,60.75,-137.51,63.12,43,95,10.22,CA,1594592948
Saskylakh,71.92,114.08,59.81,69,92,17.96,RU,1594592399
West Bay,19.37,-81.42,87.01,70,75,10.29,KY,1594592720
Sabang,5.89,95.32,82.26,73,100,5.79,ID,1594592725
Dikson,73.51,80.55,42.13,97,99,6.55,RU,1594592942
Mogadishu,2.04,45.34,77.54,86,92,16.64,SO,1594592704
Umm Kaddadah,13.6,26.69,83.57,46,97,16.13,SD,1594592951
Kavaratti,10.57,72.64,82.17,77,100,10.74,IN,1594592951
Ajdabiya,30.76,20.23,72.0,84,0,10.31,LY,1594592951
Dārāb,28.75,54.54,81.45,23,33,5.06,IR,1594592952
Beira,-19.84,34.84,71.6,68,15,12.75,MZ,1594592952
Vasai,19.47,72.8,80.6,94,75,3.36,IN,1594592953
Charters Towers,-20.1,146.27,56.21,39,54,14.92,AU,1594592953
Portland,45.52,-122.68,78.01,47,40,4.7,US,1594592940
Port Saint Lucie,27.29,-80.35,84.0,83,75,8.05,US,1594592954
Nasīrābād,26.3,74.73,81.75,73,100,11.43,IN,1594592954
Lata,40.16,-8.33,75.99,58,0,1.99,PT,1594592473
Naze,28.37,129.48,84.2,89,75,9.17,JP,1594592955
Leticia,-4.22,-69.94,82.4,88,75,2.46,CO,1594592955
Kinna,57.51,12.69,55.99,93,90,9.17,SE,1594592955
Altamont,42.21,-121.74,84.99,21,1,8.05,US,1594592956
Alofi,-19.06,-169.92,75.2,83,95,20.8,NU,1594592712
Zonguldak,41.25,31.83,59.94,92,0,2.75,TR,1594592851
Lompoc,34.64,-120.46,77.0,60,0,13.87,US,1594592249
Constitución,-35.33,-72.42,53.67,81,100,6.6,CL,1594592937
Mackenzie,55.3,-123.17,50.0,93,90,4.7,CA,1594592958
Busselton,-33.65,115.33,55.0,79,37,14.34,AU,1594592706
Byron Bay,-28.65,153.62,57.0,93,40,5.82,AU,1594592844
Baley,51.6,116.63,61.0,90,96,3.04,RU,1594592959
Øksfjord,70.24,22.35,57.2,67,100,8.05,NO,1594592959
Butaritari,3.07,172.79,83.55,76,48,13.6,KI,1594592798
Abu Samrah,35.3,37.18,72.12,70,0,12.1,SY,1594592951
Litovko,49.24,135.17,67.71,83,1,1.77,RU,1594592960
La Orilla,17.98,-102.23,85.86,70,98,9.66,MX,1594592961
Cuamba,-14.8,36.54,63.95,81,0,8.19,MZ,1594592961
Port Hardy,50.7,-127.42,57.2,82,75,6.93,CA,1594592927
Saint-Philippe,-21.36,55.77,64.4,72,31,9.17,RE,1594592799
Berlevåg,70.86,29.09,46.4,87,75,5.82,NO,1594592963
Båtsfjord,70.63,29.72,46.4,87,75,5.82,NO,1594592963
Galveston,29.37,-94.97,97.0,70,1,16.11,US,1594592963
Iqaluit,63.75,-68.51,55.4,82,75,10.29,CA,1594592885
Otane,-39.88,176.63,48.99,94,100,6.17,NZ,1594592938
Philadelphia,39.95,-75.16,90.0,40,40,12.75,US,1594592893
Soyo,-6.13,12.37,72.09,83,1,9.66,AO,1594592965
Richards Bay,-28.78,32.04,56.01,71,0,8.12,ZA,1594592965
Impfondo,1.64,18.07,72.63,92,36,1.1,CG,1594592965
Praia da Vitória,38.73,-27.07,71.6,73,20,9.93,PT,1594592820
Laas,46.62,10.7,57.2,76,5,0.85,IT,1594592967
Port Elizabeth,-33.92,25.57,44.6,87,0,3.36,ZA,1594592715
Sambava,-14.27,50.17,69.37,86,63,10.38,MG,1594592728
Mpika,-11.83,31.45,62.15,50,70,8.23,ZM,1594592968
Sindor,62.86,51.89,54.5,78,77,9.48,RU,1594592968
Mitsamiouli,-11.38,43.28,77.36,72,0,3.62,KM,1594592957
Petropavlovsk-Kamchatskiy,53.05,158.65,57.2,93,75,4.47,RU,1594592969
Codrington,-38.27,141.97,43.95,90,0,2.8,AU,1594592470
Honningsvåg,70.98,25.97,49.33,82,2,12.75,NO,1594592970
Canary Islands,28.0,-15.5,72.0,78,20,25.28,ES,1594592970
Half Moon Bay,37.46,-122.43,84.99,67,1,12.75,US,1594592736
Bam,29.11,58.36,82.33,19,2,8.3,IR,1594592971
Saint Anthony,45.02,-93.22,84.2,39,40,6.93,US,1594592679
La Ronge,55.1,-105.28,68.0,77,90,10.29,CA,1594592156
Broken Hill,-31.95,141.43,42.8,93,90,10.29,AU,1594592411
Santa Isabel,-23.32,-46.22,71.6,72,18,2.24,BR,1594592973
Vuktyl,63.86,57.31,56.14,75,60,10.56,RU,1594592973
Raudeberg,61.99,5.14,53.6,76,89,3.36,NO,1594592973
Itoman,26.12,127.67,84.2,83,75,6.93,JP,1594592955
Healdsburg,38.61,-122.87,100.0,18,1,9.17,US,1594592974
Broome,42.25,-75.83,82.99,47,20,4.7,US,1594592948
Ponta Delgada,37.73,-25.67,68.0,72,75,6.93,PT,1594592975
Srednekolymsk,67.45,153.68,68.32,53,22,7.85,RU,1594592975
Iwaki,37.05,140.88,66.0,87,100,4.54,JP,1594592975
Vardø,70.37,31.11,46.4,81,75,9.17,NO,1594592956
Koslan,63.46,48.9,53.96,78,79,9.64,RU,1594592466
Kiryat Gat,31.61,34.76,75.99,72,0,1.01,IL,1594592433
Garmsār,35.22,52.34,85.28,28,73,12.71,IR,1594592977
Souillac,-20.52,57.52,69.8,88,75,16.11,MU,1594592941
San Patricio,19.22,-104.7,87.8,79,75,13.87,MX,1594592948
Longyearbyen,78.22,15.64,46.4,81,75,2.24,SJ,1594592398
Rocha,-34.48,-54.33,41.77,67,62,7.27,UY,1594592979
Murgeni,46.2,28.02,57.79,84,100,20.87,RO,1594592979
Guangyuan,32.44,105.82,61.0,91,50,3.91,CN,1594592704
Mahébourg,-20.41,57.7,69.8,88,75,16.11,MU,1594592951
Tessalit,20.2,1.01,94.15,25,43,10.94,ML,1594592980
Bedelē,8.46,36.35,55.67,100,84,2.73,ET,1594592980
Bambous Virieux,-20.34,57.76,72.0,88,75,16.11,MU,1594592924
Mahajanga,-15.72,46.32,71.6,68,20,4.7,MG,1594592215
Fort Nelson,58.81,-122.7,71.6,37,75,11.41,CA,1594592982
Upernavik,72.79,-56.15,41.86,84,97,9.89,GL,1594592944
Lorengau,-2.02,147.27,82.65,73,85,2.42,PG,1594592963
Toyooka,35.53,134.83,66.2,93,75,5.82,JP,1594592983
Tabou,4.42,-7.35,75.22,80,88,7.09,CI,1594592973
Port Lincoln,-34.73,135.87,51.57,82,14,3.27,AU,1594592812
Bontang,0.13,117.5,74.98,93,100,6.51,ID,1594592984
Clarence Town,-32.58,151.78,46.99,100,75,8.05,AU,1594592985
Kumul,42.8,93.45,74.3,38,55,5.19,CN,1594592744
Edson,53.58,-116.44,55.4,62,90,11.41,CA,1594592986
Akureyri,65.68,-18.09,53.6,81,90,5.82,IS,1594592986
Kalmunai,7.42,81.82,81.48,78,100,3.76,LK,1594592986
Gizo Government Station,-8.1,156.84,83.64,75,92,13.4,SB,1594592987
Menongue,-14.66,17.69,52.54,43,0,5.17,AO,1594592136
Severo-Kuril'sk,50.68,156.12,49.78,92,100,8.46,RU,1594592823
Ilulissat,69.22,-51.1,46.4,75,33,3.36,GL,1594592930
Sojītra,22.55,72.72,80.6,94,75,8.05,IN,1594592989
Shakawe,-18.37,21.85,47.5,42,0,4.18,BW,1594592989
Vestmannaeyjar,63.44,-20.27,50.54,94,100,3.96,IS,1594592987
Aykhal,66.0,111.5,59.0,67,75,4.47,RU,1594592948
Khatanga,71.97,102.5,55.72,74,98,15.01,RU,1594592703
Miles City,46.41,-105.84,96.8,15,1,8.05,US,1594592933
Mayo,38.89,-76.51,87.01,54,20,10.29,US,1594592829
Bethel,41.37,-73.41,87.01,48,1,12.75,US,1594592931
Ahipara,-35.17,173.17,59.68,85,28,9.37,NZ,1594592921
Zhezkazgan,47.8,67.71,78.66,49,0,8.75,KZ,1594592992
Cururupu,-1.83,-44.87,75.43,86,57,2.95,BR,1594592993
Roswell,34.02,-84.36,80.6,65,40,9.17,US,1594592761
Saint Paul Harbor,57.79,-152.41,57.2,67,90,8.05,US,1594592394
Husavik,66.04,-17.34,53.6,81,90,5.82,IS,1594592994
Sept-Îles,50.2,-66.38,73.4,78,75,2.24,CA,1594592707
Vanimo,-2.67,141.3,79.02,82,100,1.39,PG,1594592922
Santa Marta,11.24,-74.2,78.8,94,75,13.69,CO,1594592838
Chokurdakh,70.63,147.92,64.8,51,67,10.38,RU,1594592931
Saldanha,-33.01,17.94,57.2,82,49,25.28,ZA,1594592856
Fairbanks,64.84,-147.72,70.0,32,1,5.06,US,1594592945
Kulhudhuffushi,6.62,73.07,82.96,71,16,3.29,MV,1594592996
Stalowa Wola,50.58,22.05,57.0,71,4,4.0,PL,1594592997
Orangeburg,33.49,-80.86,96.01,44,1,4.7,US,1594592997
Trairi,-3.28,-39.27,75.92,84,62,11.14,BR,1594592997
Plettenberg Bay,-34.05,23.37,64.53,31,0,11.3,ZA,1594592878
Mandalgovi,45.76,106.27,64.71,57,2,2.44,MN,1594592998
Edd,13.93,41.69,91.36,48,67,7.7,ER,1594592999
Buritis,-15.62,-46.42,70.36,40,0,3.27,BR,1594592999
Cidreira,-30.18,-50.21,57.33,87,99,9.28,BR,1594592930
Bereda,43.27,-7.54,63.0,97,2,5.99,ES,1594593000
Hamilton,39.18,-84.53,75.2,69,75,16.11,US,1594592704
Muzhi,65.37,64.67,56.97,87,41,11.68,RU,1594593000
Port-Gentil,-0.72,8.78,77.0,88,90,13.82,GA,1594592355
Verkhnevilyuysk,63.45,120.32,66.92,72,97,1.72,RU,1594593001
Zhuhai,22.28,113.57,86.0,89,40,8.05,CN,1594593001
Markova,48.68,24.41,46.51,90,43,4.85,UA,1594593002
Talnakh,69.49,88.4,53.6,81,75,4.47,RU,1594592989
Hasaki,35.73,140.83,66.2,100,75,8.05,JP,1594592792
Tuktoyaktuk,69.45,-133.04,57.2,62,75,11.41,CA,1594592706
Tazmalt,36.39,4.4,77.0,78,40,3.36,DZ,1594593004
Alugan,12.22,125.48,80.33,79,100,3.09,PH,1594593004
Kresttsy,58.25,32.52,50.4,96,95,2.01,RU,1594593005
Tadine,-21.55,167.88,73.17,76,50,16.89,NC,1594592716
Neuquén,-38.95,-68.06,46.4,61,100,2.24,AR,1594593006
Atherton,53.52,-2.49,61.0,65,5,1.99,GB,1594593006
Te Anau,-45.42,167.72,35.8,85,5,1.43,NZ,1594592937
Hokitika,-42.72,170.97,51.3,78,93,3.83,NZ,1594593007
Leningradskiy,69.38,178.42,43.83,69,37,9.51,RU,1594592827
Katsuura,35.13,140.3,70.0,94,75,9.17,JP,1594592203
Narsaq,60.92,-46.05,53.6,54,100,4.7,GL,1594592935
Kudahuvadhoo,2.67,72.89,83.97,69,83,6.13,MV,1594593008
Vila do Maio,15.13,-23.22,78.8,78,75,11.41,CV,1594593009
Leh,34.17,77.58,55.62,40,28,5.39,IN,1594593009
Pemba,-12.97,40.52,73.11,85,20,12.44,MZ,1594593010
kimparana,12.83,-4.92,86.18,52,15,8.99,ML,1594592940
Ribeira Grande,38.52,-28.7,69.15,81,0,15.99,PT,1594592931
Bitkine,11.98,18.21,81.36,64,1,6.31,TD,1594592839
Nyurba,63.28,118.33,62.46,94,100,4.29,RU,1594593011
Nova Praha,48.57,32.9,68.0,52,20,6.71,UA,1594593012
Safi,32.3,-9.24,72.14,81,0,14.2,MA,1594592941
Alamosa,37.47,-105.87,82.4,15,1,19.46,US,1594593013
Tautira,-17.73,-149.15,82.4,61,40,11.41,PF,1594593013
Manaure,11.78,-72.44,87.8,66,75,17.02,CO,1594593013
Santa Cruz de la Sierra,-17.8,-63.17,77.0,83,40,13.87,BO,1594592894
Kutum,14.2,24.67,77.4,52,100,12.19,SD,1594593014
Torbay,47.67,-52.73,61.0,82,90,13.87,CA,1594593015
Fortuna,40.6,-124.16,73.99,60,20,17.22,US,1594592927
Arraial do Cabo,-22.97,-42.03,77.0,61,58,5.82,BR,1594592933
Robertson,36.52,-86.87,86.0,74,75,3.36,US,1594593016
Isangel,-19.55,169.27,77.0,69,75,9.17,VU,1594592707
Zyryanka,65.75,150.85,74.44,40,100,3.47,RU,1594593017
Hirara,24.8,125.28,84.2,88,40,3.36,JP,1594592977
Nome,64.5,-165.41,66.0,72,1,8.05,US,1594592686
Eucaliptus,-17.58,-67.52,41.31,46,0,1.99,BO,1594593018
Menzelinsk,55.73,53.1,66.2,68,0,4.47,RU,1594593018
Guánica,17.97,-66.91,86.0,69,13,4.0,PR,1594593018
Umm Bāb,25.21,50.81,96.01,36,1,5.82,QA,1594593019
Kavieng,-2.57,150.8,83.03,71,98,4.9,PG,1594592992
Mnogovershinnyy,53.94,139.92,60.82,77,96,0.96,RU,1594592984
Cayenne,4.93,-52.33,80.6,83,36,9.46,GF,1594592734
Bijie,27.31,105.29,65.37,94,100,3.2,CN,1594593020
Fernie,49.5,-115.07,66.2,39,75,12.75,CA,1594592991
Pūranpur,28.52,80.15,79.48,88,79,5.86,IN,1594593021
Namtsy,62.72,129.67,75.2,73,12,4.47,RU,1594593021
Faanui,-16.48,-151.75,79.0,75,100,15.43,PF,1594592708
Lagoa,39.05,-27.98,68.65,79,0,16.28,PT,1594592802
Charyshskoye,51.4,83.56,54.19,84,0,3.36,RU,1594593023
Clyde River,70.47,-68.59,42.8,87,75,9.17,CA,1594593023
Aksu,41.12,80.26,70.59,37,7,3.44,CN,1594593024
Llangefni,53.26,-4.31,59.0,77,62,19.46,GB,1594592990
Nouadhibou,20.93,-17.03,71.6,83,0,10.29,MR,1594592987
Matara,5.95,80.54,78.82,88,91,8.25,LK,1594592944
Rafrāf,37.19,10.18,75.2,60,0,4.7,TN,1594593025
Mlimba,-8.8,35.82,68.41,62,9,3.18,TZ,1594592805
Klaksvík,62.23,-6.59,50.0,93,100,14.99,FO,1594592819
Dévaványa,47.03,20.97,57.2,87,0,2.24,HU,1594593026
Brownsville,25.9,-97.5,96.8,50,1,17.22,US,1594592958
Bathsheba,13.22,-59.52,82.4,78,40,14.99,BB,1594593027
Changji,44.02,87.32,69.8,49,87,6.71,CN,1594593028
Pozhva,59.09,56.08,61.61,95,5,6.24,RU,1594593028
Jangaon,17.72,79.18,78.85,79,100,8.55,IN,1594593028
Kabala,9.58,-11.55,70.07,99,100,3.6,SL,1594593029
Spokoynaya,44.25,41.4,64.22,83,100,3.36,RU,1594593029
Havelock,34.88,-76.9,86.0,80,18,1.01,US,1594592815
Sofiyivka,48.05,33.87,68.0,52,20,6.71,UA,1594593030
Mahon,39.89,4.27,71.6,49,34,5.82,ES,1594593031
Opuwo,-18.06,13.84,52.61,47,0,4.52,NA,1594592739
Hong Kong,22.29,114.16,84.0,79,13,4.34,HK,1594592985
Port Hedland,-20.32,118.57,59.0,22,2,9.17,AU,1594593032
Belmonte,-15.86,-38.88,71.6,88,75,2.24,BR,1594593032
Jaciara,-15.97,-54.97,77.54,46,97,4.76,BR,1594593032
Nishihara,26.18,127.76,84.2,83,40,5.82,JP,1594593033
Arrifes,37.77,-25.7,68.0,72,75,6.93,PT,1594593033
Valparaíso,-33.04,-71.63,68.0,51,100,11.41,CL,1594593034
Yangi Marg`ilon,40.43,71.72,71.6,60,100,4.7,UZ,1594593034
Tuatapere,-46.13,167.68,39.0,83,62,3.0,NZ,1594593035
Poya,-21.35,165.15,73.76,73,21,4.07,NC,1594593035
Geraldton,-28.77,114.6,53.6,62,75,14.99,AU,1594592440
Mar del Plata,-38.0,-57.56,43.0,56,1,13.87,AR,1594593036
Beringovskiy,63.05,179.32,50.83,81,99,10.22,RU,1594593036
Kita,13.03,-9.49,78.93,76,18,2.57,ML,1594593037
Mtwara,-10.27,40.18,69.15,92,0,7.45,TZ,1594593037
Vostok,46.49,135.88,64.54,85,86,0.43,RU,1594593037
Airai,-8.93,125.41,55.92,93,92,4.29,TL,1594592813
Wonthaggi,-38.6,145.59,52.0,93,16,12.77,AU,1594593038
Kaitangata,-46.28,169.85,43.0,74,4,5.99,NZ,1594592934
Victor Harbor,-35.57,138.62,44.01,93,3,2.39,AU,1594593039
Nyrob,60.73,56.72,55.9,79,0,4.68,RU,1594593039
Bealanana,-14.55,48.73,55.06,91,67,3.85,MG,1594593040
Tshikapa,-6.42,20.8,74.07,66,31,2.21,CD,1594592773
Washington,47.5,-120.5,79.0,26,25,10.0,US,1594592963
Norfolk,42.17,-71.25,88.0,48,20,12.75,US,1594593041
Palmas,-10.21,-48.36,80.6,54,94,2.24,BR,1594592822
Newport,51.59,-3.0,63.0,65,80,5.37,GB,1594592997
Olafsvik,64.89,-23.71,51.06,82,54,3.31,IS,1594592955
Bandarbeyla,9.49,50.81,81.75,67,72,31.29,SO,1594593043
Sandwick,60.0,-1.25,51.8,87,98,5.82,GB,1594592948
Grindavik,63.84,-22.43,50.0,93,90,4.7,IS,1594592944
Vilyuysk,63.76,121.62,67.62,65,75,3.53,RU,1594593044
Jutaí,-5.18,-68.9,74.84,95,85,2.57,BR,1594593044
Imuris,30.78,-110.87,107.01,30,10,3.0,MX,1594593045
Alta,69.97,23.27,57.2,67,100,8.05,NO,1594592944
Pontianak,-0.03,109.33,74.75,94,100,3.0,ID,1594593046
Kirakira,-10.45,161.92,82.22,77,50,15.1,SB,1594593046
Hakkâri Province,37.58,44.17,56.64,68,45,2.59,TR,1594592849
Lar,26.2,83.97,83.52,80,99,4.09,IN,1594593047
Minas de Barroterán,27.63,-101.28,103.48,16,4,13.13,MX,1594593047
Salina,38.84,-97.61,93.99,43,1,9.17,US,1594593048
Morant Bay,17.88,-76.41,87.8,66,20,16.11,JM,1594593048
High Rock,26.62,-78.28,87.8,70,75,13.87,BS,1594593049
Nemuro,43.32,145.57,55.72,90,94,4.36,JP,1594593049
Hinton,53.4,-117.59,63.3,34,100,7.4,CA,1594593050
Lensk,60.73,114.93,65.46,82,98,5.32,RU,1594593050
Kumluca,36.37,30.29,83.62,44,0,4.16,TR,1594593051
Namatanai,-3.67,152.43,76.53,88,100,5.75,PG,1594593051
Birjand,32.87,59.22,69.8,26,10,4.7,IR,1594593052
Tura,25.52,90.22,74.23,97,89,5.95,IN,1594592811
Qaqortoq,60.72,-46.03,53.6,54,100,4.7,GL,1594593053
Kendari,-3.94,122.5,74.75,92,50,2.77,ID,1594593053
Mbandaka,0.05,18.26,70.81,93,63,0.74,CD,1594593054
Pueblo,38.25,-104.61,98.6,18,20,3.36,US,1594593054
Ludvika,60.15,15.19,51.8,81,51,1.12,SE,1594593054
Lerwick,60.15,-1.15,51.8,87,98,5.82,GB,1594592877
Nānākuli,21.39,-158.15,87.8,48,20,9.17,US,1594593055
Russell,32.35,-85.2,75.2,88,90,12.75,US,1594593056
Evensk,61.95,159.23,64.62,72,37,4.23,RU,1594593056
Okny,47.54,29.46,59.4,79,98,16.64,UA,1594593056
Sheregesh,52.92,87.99,55.96,91,71,1.63,RU,1594593057
Yauya,-8.98,-77.3,56.97,55,59,5.55,PE,1594593057
Baykit,61.67,96.37,58.69,86,87,2.46,RU,1594593058
Oranjestad,12.52,-70.03,84.2,79,40,18.34,AW,1594593058
Quelimane,-17.88,36.89,68.5,81,85,7.09,MZ,1594593058
Upington,-28.45,21.26,50.0,34,0,10.29,ZA,1594593025
Gamba,-2.65,10.0,70.45,93,16,5.97,GA,1594593059
Mazamari,-11.33,-74.53,76.95,63,58,0.87,PE,1594593060
Sola,-13.88,167.55,80.6,88,90,11.41,VU,1594593037
Panama City,8.99,-79.52,86.0,83,40,5.82,PA,1594593006
Saint George,37.1,-113.58,108.0,12,1,19.46,US,1594593022
Hambantota,6.12,81.12,80.6,94,75,6.93,LK,1594593061
Mehamn,71.04,27.85,47.17,84,0,5.14,NO,1594593062
Mahibadhoo,3.78,72.97,83.25,68,89,2.82,MV,1594593062
San Jerónimo Acazulco,19.27,-99.43,78.01,46,40,20.8,MX,1594593063
Krasnosel'kup,65.7,82.47,53.37,73,50,4.72,RU,1594592842
Noyabrsk,63.2,75.45,58.08,76,99,13.69,RU,1594593064
Saint-Joseph,-21.37,55.62,64.4,72,24,9.17,RE,1594593064
Caravelas,-17.71,-39.25,70.95,85,56,3.71,BR,1594593064
Obo,5.4,26.49,68.49,93,100,1.63,CF,1594593065
Hofn,64.25,-15.21,51.1,90,100,10.65,IS,1594593066
Touros,-5.2,-35.46,73.4,88,20,3.36,BR,1594592793
Benjamin Constant,-4.38,-70.03,82.4,83,75,3.36,BR,1594593067
Presidencia Roque Sáenz Peña,-26.79,-60.44,63.55,79,6,4.74,AR,1594592876
Merauke,-8.47,140.33,78.33,81,73,14.92,ID,1594593068
Zhoucheng,35.91,116.31,69.57,88,100,8.21,CN,1594593068
Guerrero Negro,27.98,-114.06,84.92,34,0,18.32,MX,1594593043
Slobozia,46.73,29.71,60.8,77,90,16.11,MD,1594593069
Alta Floresta,-9.88,-56.09,91.4,36,20,1.12,BR,1594593069
Carutapera,-1.2,-46.02,76.08,91,59,6.55,BR,1594593069
Green River,41.53,-109.47,87.8,14,1,27.51,US,1594593056
Puerto Escondido,15.85,-97.07,86.0,70,75,9.17,MX,1594593070
Sumenep,-7.02,113.87,78.35,80,100,6.17,ID,1594593071
Walla Walla,46.06,-118.34,80.01,29,1,10.29,US,1594593071
Cabo San Lucas,22.89,-109.91,95.0,44,40,4.7,MX,1594592982
Skibbereen,51.55,-9.27,55.4,100,90,14.99,IE,1594593072
Fasa,28.94,53.65,82.4,28,75,0.85,IR,1594593072
Angoche,-16.23,39.91,71.19,83,0,6.82,MZ,1594593072
Na Wa,17.49,104.1,82.0,83,70,3.36,TH,1594593073
Takoradze,4.88,-1.76,74.52,89,41,7.38,GH,1594593073
Plácido de Castro,-10.34,-67.19,78.69,69,4,1.95,BR,1594593074
Grande Prairie,55.17,-118.8,62.6,45,75,19.46,CA,1594592861
Frontera,26.93,-101.45,107.01,10,0,8.99,MX,1594593074
Kirovsk,48.64,38.64,65.77,87,83,5.68,UA,1594593075
Igualada,41.58,1.62,71.01,84,87,6.38,ES,1594593075
Arrondissement de Gourdon,44.75,1.5,64.0,61,44,2.24,FR,1594593076
Mananum,8.83,124.95,73.99,87,98,8.01,PH,1594593076
At-Bashi,41.17,75.81,49.82,58,20,1.12,KG,1594593077
Drayton Valley,53.22,-114.99,55.26,85,100,12.84,CA,1594593077
Muisne,0.6,-80.03,75.94,88,97,9.24,EC,1594593078
Kasempa,-13.46,25.83,57.13,45,0,5.37,ZM,1594593078
Bosaso,11.28,49.18,93.54,37,48,25.12,SO,1594593078
Arua,3.02,30.91,62.92,91,76,4.68,UG,1594593079
Shubarkuduk,49.14,56.49,82.69,42,86,7.2,KZ,1594593079
Ixtapa,20.7,-105.2,86.0,74,75,5.82,MX,1594592828
Empalme,27.97,-110.82,109.99,50,5,11.41,MX,1594593080
Arkansas City,37.06,-97.04,91.99,31,1,9.17,US,1594593081
Rock Springs,41.59,-109.2,87.8,14,1,27.51,US,1594593010
Barcelona,41.39,2.16,77.0,73,20,5.82,ES,1594592885
Deneysville,-26.89,28.1,37.9,64,0,4.09,ZA,1594593082
Viedma,-40.81,-63.0,41.81,63,0,14.47,AR,1594593082
Mossamedes,-15.2,12.15,63.0,76,0,7.76,AO,1594593082
Chingirlau,51.09,54.08,78.04,53,99,11.16,KZ,1594593083
Egvekinot,66.32,-179.17,57.09,46,97,5.61,RU,1594593083
Ariquemes,-9.91,-63.04,80.19,58,46,1.36,BR,1594593084
Matadi,-5.82,13.45,71.38,76,17,7.09,CD,1594593084
Sørland,67.67,12.69,51.66,83,0,6.91,NO,1594593084
Nioro,13.35,-15.75,76.44,87,100,5.41,GM,1594593085
Nuuk,64.18,-51.72,51.01,66,10,5.01,GL,1594593086
Itarema,-2.92,-39.92,78.24,78,57,14.72,BR,1594592954
Jasper,37.2,-94.35,89.6,33,1,8.05,US,1594593087
Makakilo City,21.35,-158.09,87.8,48,20,9.17,US,1594592837
Pokaran,26.92,71.92,86.27,61,54,15.93,IN,1594593088
Gravdal,68.12,13.5,50.43,80,2,3.15,NO,1594593088
Estelle,29.85,-90.11,98.01,50,40,8.05,US,1594593088
Oriximiná,-1.77,-55.87,78.53,83,87,4.25,BR,1594593089
Moussoro,13.64,16.49,84.96,55,2,11.5,TD,1594593089
Hobyo,5.35,48.53,79.09,76,30,18.86,SO,1594593090
Rāmgarh,23.63,85.52,75.2,100,75,3.36,IN,1594593090
San Juan,-31.54,-68.54,52.93,48,100,10.76,AR,1594592872
Abadan,38.05,58.21,86.0,37,75,13.87,TM,1594593091
Medowie,-32.73,151.87,46.99,100,75,8.05,AU,1594593091
Panguna,-6.32,155.48,73.87,94,100,2.75,PG,1594593092
Khasan,42.43,130.64,65.34,87,98,5.93,RU,1594593092
Pisco,-13.7,-76.22,64.0,82,58,8.05,PE,1594592898
Homer,59.64,-151.55,62.6,55,1,9.17,US,1594593041
Kahului,20.89,-156.47,87.8,48,40,25.28,US,1594593039
Vao,-22.67,167.48,71.85,80,71,20.49,NC,1594593093
Catuday,16.29,119.81,82.22,80,100,7.76,PH,1594593094
Bilibino,68.05,166.44,62.8,76,75,4.12,RU,1594593094
Ust-Kuyga,70.02,135.6,78.66,32,26,3.29,RU,1594593095
Wyszków,52.59,21.46,59.0,48,0,3.29,PL,1594593095
Languyan,5.26,120.08,79.63,81,71,2.91,PH,1594593095
La Paz,-16.5,-68.15,57.2,20,20,9.17,BO,1594593007
Ostrovnoy,68.05,39.51,47.75,91,100,6.87,RU,1594593096
Fengrun,39.83,118.12,74.26,76,98,2.82,CN,1594593096
Shache,38.42,77.24,70.83,32,84,3.36,CN,1594593097
Atikokan,48.76,-91.62,77.9,39,76,3.91,CA,1594593097
Barranco,9.52,-82.7,82.4,78,75,5.82,PA,1594593098
Kisangani,0.52,25.2,73.15,90,99,1.68,CD,1594593098
Oistins,13.07,-59.53,82.4,78,40,14.99,BB,1594593098
Calvinia,-31.47,19.78,43.34,62,0,12.53,ZA,1594593099
Pacific Grove,36.62,-121.92,77.0,63,1,11.41,US,1594593099
Iquitos,-3.75,-73.25,82.4,74,75,12.75,PE,1594593100
Candelaria,13.93,121.42,79.0,91,100,3.56,PH,1594593100
Deer Lake,49.17,-57.43,68.0,88,75,3.36,CA,1594593101
Mastic Beach,40.77,-72.85,84.99,48,1,12.75,US,1594592855
Kwinana,-32.25,115.77,62.01,100,75,8.05,AU,1594593102
Anloga,5.79,0.9,75.2,88,20,5.82,GH,1594593102
Peleduy,59.63,112.74,67.14,86,100,2.77,RU,1594593102
Gdov,58.74,27.81,56.97,82,18,9.37,RU,1594593103
La Rioja,-29.41,-66.85,56.34,59,37,1.43,AR,1594593103
Arys,42.43,68.8,75.2,31,0,4.47,KZ,1594593104
Ketchikan,55.34,-131.65,59.0,77,75,9.17,US,1594593104
Xichang,27.9,102.26,66.24,79,100,2.3,CN,1594593104
Havøysund,71.0,24.66,51.8,71,11,9.17,NO,1594593105
Port Blair,11.67,92.75,81.32,80,100,12.73,IN,1594593105
Cabinda,-5.55,12.2,72.12,83,9,7.56,AO,1594593105
LaBelle,26.76,-81.44,84.99,83,1,6.93,US,1594593106
Visby,57.64,18.3,60.01,93,49,5.82,SE,1594593107
Acapulco de Juárez,16.86,-99.89,86.0,74,75,4.7,MX,1594592930
Malartic,48.13,-78.13,62.6,88,90,8.05,CA,1594593029
Sitka,57.05,-135.33,59.0,72,75,5.82,US,1594593108
Pinega,64.7,43.39,48.25,93,13,1.72,RU,1594593109
Polovinnoye,54.79,65.99,61.29,82,7,3.49,RU,1594593109
Kenai,60.55,-151.26,55.99,87,90,6.93,US,1594593110
Ust-Nera,64.57,143.2,73.74,47,93,9.01,RU,1594593036
Kieta,-6.22,155.63,80.85,82,100,10.85,PG,1594593110
Shingū,33.73,135.98,68.5,80,100,4.43,JP,1594593111
Port Keats,-14.25,129.55,70.0,26,100,14.88,AU,1594593021
Shebunino,46.43,141.86,61.81,81,96,4.21,RU,1594593111
Irmo,34.09,-81.18,91.4,43,20,6.93,US,1594593112
Bilma,18.69,12.92,90.64,33,84,7.27,NE,1594592948
Xining,36.62,101.77,53.38,74,83,2.66,CN,1594592853
Misratah,32.38,15.09,76.39,77,0,7.63,LY,1594593113
Marawi,8.0,124.29,73.99,87,100,8.01,PH,1594593114
Illapel,-31.63,-71.17,61.07,48,100,2.46,CL,1594593114
Farafenni,13.57,-15.6,77.02,82,100,5.39,GM,1594593114
Iskitim,54.64,83.3,62.6,100,75,2.24,RU,1594593115
Ţaga,46.95,24.05,59.0,77,75,10.29,RO,1594593115
Ulladulla,-35.35,150.47,48.2,100,75,5.82,AU,1594593116
Ginda,30.69,78.49,63.23,71,11,3.09,IN,1594593116
São Filipe,14.9,-24.5,74.57,79,63,4.54,CV,1594592825
Lavrentiya,65.58,-171.0,46.47,74,3,6.26,RU,1594593117
Cooma,-36.23,149.13,37.4,100,90,16.11,AU,1594593118
Auki,-8.77,160.7,83.17,73,90,7.47,SB,1594593118
Tabuk,17.42,121.44,77.67,81,100,2.42,PH,1594593118
Olivenza,38.68,-7.1,84.99,39,0,5.46,ES,1594593119
Arawa,-6.21,155.54,81.86,79,100,4.41,PG,1594593119
Carbonia,39.17,8.52,77.0,78,20,8.05,IT,1594593119
Eureka,40.8,-124.16,73.99,29,1,7.0,US,1594592981
Salalah,17.02,54.09,80.6,94,90,4.7,OM,1594593120
Arrecife,28.96,-13.55,71.6,83,20,16.11,ES,1594593121
Lazurne,46.08,32.53,74.73,59,15,14.65,UA,1594593121
Aracaju,-10.91,-37.07,75.2,88,75,12.75,BR,1594592592
Quatre Cocos,-20.21,57.76,72.0,88,75,16.11,MU,1594593122
Dingle,11.0,122.67,76.78,90,89,2.35,PH,1594592952
Imbituba,-28.24,-48.67,66.2,88,40,8.05,BR,1594593122
Loni,28.75,77.28,80.6,83,40,3.36,IN,1594593123
Coyhaique,-45.58,-72.07,33.8,74,20,5.84,CL,1594593123
Nizhniy Baskunchak,48.22,46.83,84.4,36,31,15.01,RU,1594593123
Palekastro,35.2,26.25,80.01,47,0,11.01,GR,1594593124
Tema,5.67,-0.02,77.0,83,29,9.17,GH,1594593124
Lloydminster,53.28,-110.0,68.0,56,75,11.41,CA,1594593125
Itupiranga,-5.13,-49.33,82.4,65,68,2.24,BR,1594593125
Kununurra,-15.77,128.73,66.2,28,96,9.17,AU,1594593125
Itatiaia,-22.5,-44.56,65.89,67,73,3.31,BR,1594593126
Sayán,-11.14,-77.19,64.85,56,8,1.77,PE,1594593126
Cockburn Town,21.46,-71.14,86.0,62,40,13.87,TC,1594593126
Aklavik,68.22,-135.01,60.8,51,75,8.05,CA,1594593114
Evanston,42.04,-87.69,77.0,61,75,14.99,US,1594593127
Sur,22.57,59.53,84.74,68,99,10.69,OM,1594593079
Langarūd,37.2,50.15,73.4,94,90,4.7,IR,1594593128
Bragança,-1.05,-46.77,73.96,95,74,2.71,BR,1594593128
Ternate,0.8,127.4,80.78,78,62,6.51,ID,1594593129
San Jose,37.34,-121.89,97.0,24,1,12.75,US,1594593005
Anori,-3.77,-61.64,77.81,82,55,0.58,BR,1594593129
Zigong,29.34,104.78,74.77,90,100,2.35,CN,1594592848
Dwārka,22.24,68.97,83.34,83,85,18.03,IN,1594593131
Ponta do Sol,32.67,-17.1,69.01,75,0,3.83,PT,1594592942
Puerto Suárez,-18.95,-57.8,87.8,52,20,9.17,BO,1594593132
Trørød,55.84,12.54,60.01,82,24,5.01,DK,1594593132
Pauini,-7.71,-66.98,80.01,71,75,1.5,BR,1594593133
Bengkulu,-3.8,102.27,73.94,89,65,3.8,ID,1594593133
Henderson,36.04,-114.98,111.99,11,1,13.87,US,1594593040
Bhadrāchalam,17.67,80.88,78.87,88,100,1.3,IN,1594593134
Ayutla,20.12,-104.33,76.69,64,98,4.5,MX,1594593134
Honiara,-9.43,159.95,77.0,94,90,2.24,SB,1594593135
Kaiyuan,23.7,103.3,67.8,88,100,3.94,CN,1594593135
Kysyl-Syr,63.9,122.76,72.41,56,57,2.84,RU,1594593135
Tsimmerbude,54.67,20.13,55.4,87,40,6.71,RU,1594593136
Caborca,30.58,-111.1,107.01,30,4,3.0,MX,1594593137
Mugumu,-1.85,34.7,62.04,75,89,2.73,TZ,1594593137
Edéa,3.8,10.13,77.0,100,40,1.77,CM,1594593137
Fare,-16.7,-151.02,79.12,78,100,17.11,PF,1594593138
Kalakamati,-20.59,27.31,42.98,60,0,7.99,BW,1594593139
Simao,22.79,100.97,65.98,97,100,3.47,CN,1594593139
Daru,-9.08,143.21,78.12,89,92,16.44,PG,1594593140
Imeni Poliny Osipenko,52.42,136.49,66.33,76,66,3.56,RU,1594593140
Morón,-34.65,-58.62,54.0,39,82,4.0,AR,1594593140
Camacha,33.08,-16.33,68.0,77,40,13.87,PT,1594593141
Huangnihe,43.56,128.02,64.85,83,94,6.11,CN,1594593141
Oudtshoorn,-33.59,22.2,66.2,25,0,24.16,ZA,1594593141
Puerto Gaitán,4.31,-72.08,82.36,75,36,7.18,CO,1594592895
Kapit,2.02,112.93,72.41,94,100,2.04,MY,1594593143
Kismayo,-0.36,42.55,77.92,79,100,15.43,SO,1594593143
Ōhara,35.25,140.38,68.0,100,75,8.05,JP,1594593143
Kiunga,-6.12,141.29,73.76,98,98,1.36,PG,1594593144
Banjarmasin,-3.32,114.59,73.35,97,80,3.18,ID,1594593144
Lao Cai,22.48,103.95,75.56,85,100,1.1,VN,1594593144
