City,Latitude,Longitude,Max Temp,Humidity,Cloudiness,Wind Speed,Country,Date
Torbay,47.67,-52.73,61.0,71,75,4.7,CA,1594401048
Carnarvon,-24.87,113.63,57.2,47,0,8.05,AU,1594400836
Pennāgaram,12.13,77.9,76.14,83,79,2.19,IN,1594401049
Hilo,19.73,-155.09,73.4,83,75,4.7,US,1594400794
Port Elizabeth,-33.92,25.57,59.0,87,79,4.7,ZA,1594401050
Bethel,41.37,-73.41,79.0,83,90,6.93,US,1594400949
Lata,40.16,-8.33,87.01,43,0,7.25,PT,1594401051
Kabompo,-13.59,24.2,69.37,34,23,1.88,ZM,1594401051
Puerto Ayora,-0.74,-90.35,71.01,86,99,7.0,EC,1594400788
Sandwick,60.0,-1.25,55.4,71,37,11.41,GB,1594401052
Nanortalik,60.14,-45.24,47.3,87,76,8.39,GL,1594401052
Rurrenabaque,-14.44,-67.53,77.0,69,40,2.68,BO,1594401053
Hermanus,-34.42,19.23,55.0,70,99,21.39,ZA,1594401053
Tocopilla,-22.09,-70.2,65.64,46,4,3.02,CL,1594401054
Ixtapa,20.7,-105.2,89.01,70,40,2.24,MX,1594401054
Celestún,20.87,-90.4,88.07,62,57,8.37,MX,1594401054
East London,-33.02,27.91,69.69,71,98,4.25,ZA,1594401006
Nouadhibou,20.93,-17.03,75.2,69,0,21.92,MR,1594401056
San Patricio,19.22,-104.7,93.2,71,75,11.41,MX,1594401056
Nelson Bay,-32.72,152.15,55.0,100,90,5.82,AU,1594401056
Atuona,-9.8,-139.03,80.11,78,73,21.05,PF,1594400794
Topaowan,30.67,112.69,75.99,98,100,5.64,CN,1594401057
Tadine,-21.55,167.88,66.78,72,9,15.99,NC,1594400800
Rikitea,-23.12,-134.97,67.12,65,50,19.39,PF,1594400810
Riyadh,24.69,46.72,105.8,10,51,10.29,SA,1594400776
Hithadhoo,-0.6,73.08,83.62,74,100,9.46,MV,1594401059
Bambous Virieux,-20.34,57.76,72.0,60,75,13.87,MU,1594401060
Butaritari,3.07,172.79,82.18,79,100,9.46,KI,1594400840
Kruisfontein,-34.0,24.73,56.44,87,100,7.36,ZA,1594401060
Saint George,37.1,-113.58,91.0,11,1,1.07,US,1594400847
Asău,46.43,26.4,77.0,62,5,2.89,RO,1594401061
Ribeira Grande,38.52,-28.7,73.4,69,75,8.05,PT,1594401062
Punta Arenas,-53.15,-70.92,33.8,74,75,11.41,CL,1594400988
Yellowknife,62.46,-114.35,60.8,77,75,6.93,CA,1594400813
Bengkulu,-3.8,102.27,76.03,89,78,5.41,ID,1594401063
Bondoukou,8.03,-2.8,73.63,88,99,3.38,CI,1594401063
Cape Town,-33.93,18.42,54.0,81,40,12.75,ZA,1594401004
Izmalkovo,52.69,37.96,63.59,70,23,1.25,RU,1594401064
Aklavik,68.22,-135.01,42.8,93,90,6.93,CA,1594400911
Longyearbyen,78.22,15.64,50.0,71,75,6.93,SJ,1594400918
Jamestown,42.1,-79.24,82.4,58,1,6.93,US,1594400794
Mindelo,16.89,-24.98,86.0,55,20,21.92,CV,1594401066
Ponta do Sol,32.67,-17.1,73.99,67,0,5.7,PT,1594400778
Yumen,40.28,97.2,74.71,24,100,6.02,CN,1594401067
Lebu,-37.62,-73.65,50.68,73,57,7.0,CL,1594401067
Ushuaia,-54.8,-68.3,33.8,74,84,4.7,AR,1594401069
Benxi,41.29,123.77,71.6,88,100,4.47,CN,1594401069
Mataura,-46.19,168.86,40.06,93,99,3.09,NZ,1594401069
Busselton,-33.65,115.33,39.0,74,0,11.07,AU,1594401070
Kavieng,-2.57,150.8,82.2,80,65,12.86,PG,1594401070
Saint-Augustin,51.23,-58.65,73.45,57,50,10.67,CA,1594400872
Muros,42.78,-9.06,73.99,59,0,18.01,ES,1594401071
San Cristobal,7.77,-72.22,93.2,34,20,23.04,VE,1594400923
Ahipara,-35.17,173.17,50.56,84,34,2.51,NZ,1594401072
Narsaq,60.92,-46.05,48.2,93,75,5.82,GL,1594401073
Cidreira,-30.18,-50.21,60.75,70,0,15.73,BR,1594401073
Sept-Îles,50.2,-66.38,62.6,88,90,10.29,CA,1594401073
Camacha,33.08,-16.33,69.8,88,75,18.34,PT,1594401074
Bathsheba,13.22,-59.52,87.8,62,20,20.8,BB,1594401074
Talara,-4.58,-81.27,68.0,77,40,17.22,PE,1594401075
Shimoda,34.67,138.95,72.0,94,93,13.53,JP,1594401075
La Libertad,-2.23,-80.9,70.95,78,72,10.71,EC,1594401075
Tomatlán,19.93,-105.25,92.17,47,79,5.97,MX,1594401076
Kapaa,22.08,-159.32,78.8,78,75,16.11,US,1594400991
Mahon,39.89,4.27,82.4,54,100,9.17,ES,1594401077
Saint-Philippe,-21.36,55.77,69.8,64,43,11.41,RE,1594400807
Bridgetown,13.1,-59.62,87.8,62,20,20.8,BB,1594401077
Chokurdakh,70.63,147.92,44.83,71,0,11.45,RU,1594401078
Ternate,0.8,127.4,80.53,78,100,1.3,ID,1594401078
New Norfolk,-42.78,147.06,39.0,91,100,2.55,AU,1594401079
Rodolfo Sánchez Taboada,31.72,-116.57,72.0,80,5,3.0,MX,1594401079
Tual,-5.67,132.75,78.94,88,61,18.19,ID,1594401079
Duba-Yurt,43.04,45.73,78.8,65,75,8.95,RU,1594401080
Pervomayskoye,43.92,46.71,82.78,45,92,9.73,RU,1594401080
Vaini,-21.2,-175.2,69.8,88,40,11.41,TO,1594400806
Buraidah,26.33,43.98,104.0,16,13,4.7,SA,1594400840
Souillac,-20.52,57.52,71.6,60,75,13.87,MU,1594401081
Fort Nelson,58.81,-122.7,59.0,82,20,4.7,CA,1594400784
Maningrida,-12.07,134.27,71.96,87,6,9.75,AU,1594401082
Dikson,73.51,80.55,44.13,84,91,18.3,RU,1594401083
Cabo San Lucas,22.89,-109.91,87.01,70,40,17.22,MX,1594400974
Rawson,-43.3,-65.1,45.41,54,0,22.3,AR,1594400856
Qaanaaq,77.48,-69.36,45.77,58,55,2.59,GL,1594401084
Menongue,-14.66,17.69,69.46,24,36,5.26,AO,1594401085
Albany,42.6,-73.97,84.99,61,99,8.25,US,1594401085
Mahébourg,-20.41,57.7,71.6,60,75,13.87,MU,1594401086
Gondanglegi,-7.75,112.01,74.91,84,69,11.48,ID,1594401086
Necochea,-38.55,-58.74,50.0,86,100,7.0,AR,1594401087
Puerto del Rosario,28.5,-13.86,78.8,69,11,19.46,ES,1594401087
La Asuncion,11.03,-63.86,73.4,100,81,14.99,VE,1594401088
La Ronge,55.1,-105.28,62.71,60,99,6.11,CA,1594401089
Kloulklubed,7.04,134.26,77.0,94,90,9.17,PW,1594401089
Trofors,65.53,13.41,57.2,58,75,1.12,NO,1594401089
Huari,-9.33,-77.23,44.13,69,94,4.54,PE,1594401090
Saldanha,-33.01,17.94,53.6,87,74,9.17,ZA,1594401090
Avarua,-21.21,-159.78,68.0,100,22,2.24,CK,1594401091
Arraial do Cabo,-22.97,-42.03,73.4,60,75,10.29,BR,1594400928
Taoudenni,22.68,-3.98,113.04,7,33,14.32,ML,1594401091
Hobart,-42.88,147.33,41.0,93,100,9.17,AU,1594400826
Anloga,5.79,0.9,82.4,74,20,14.99,GH,1594401092
Faanui,-16.48,-151.75,77.92,81,7,20.02,PF,1594401093
Pevek,69.7,170.31,43.54,99,98,6.17,RU,1594400807
Bereda,43.27,-7.54,68.0,78,4,14.0,ES,1594401093
George Town,5.41,100.34,80.6,100,40,3.36,MY,1594400885
Sittwe,20.15,92.9,82.62,84,93,10.27,MM,1594401095
Kirakira,-10.45,161.92,78.58,83,67,10.63,SB,1594401096
Tateyama,34.98,139.87,78.01,93,100,8.99,JP,1594400880
Srednekolymsk,67.45,153.68,56.5,80,78,9.37,RU,1594401097
Ucluelet,48.93,-125.55,57.99,87,75,5.82,CA,1594401022
Shelburne,44.08,-80.2,90.0,52,20,10.29,CA,1594401067
San Quintín,30.48,-115.95,76.08,54,1,7.56,MX,1594401098
La Rioja,42.25,-2.5,73.4,60,40,12.75,ES,1594401099
Oodweyne,9.41,45.06,82.71,44,91,19.24,SO,1594401099
Emba,48.83,58.14,85.24,32,0,6.93,KZ,1594401099
Huejuquilla el Alto,22.6,-103.87,73.56,55,35,1.32,MX,1594401100
Montrose,38.42,-108.27,84.99,16,0,4.0,US,1594401100
Barrow,71.29,-156.79,33.8,86,90,5.82,US,1594401101
Upernavik,72.79,-56.15,39.81,87,79,21.05,GL,1594401101
Praia da Vitória,38.73,-27.07,75.2,60,40,5.59,PT,1594401102
Guhāgar,17.48,73.19,80.64,84,100,5.77,IN,1594401102
Sechura,-5.56,-80.82,71.78,61,61,10.07,PE,1594401103
Barcs,45.96,17.46,89.6,29,17,9.17,HU,1594401103
Norman Wells,65.28,-126.83,46.4,93,90,13.87,CA,1594400810
Constitución,-35.33,-72.42,55.94,87,100,5.14,CL,1594400926
Uglovoye,43.33,132.09,66.2,93,88,4.47,RU,1594401105
Krasnyy Kut,50.95,46.97,72.84,81,88,11.56,RU,1594401105
Gurupi,-11.73,-49.07,92.3,30,0,8.79,BR,1594401106
Banda Aceh,5.56,95.32,80.2,74,100,2.82,ID,1594401106
Karīmganj,24.87,92.35,77.38,96,100,4.32,IN,1594401107
Raja,8.46,25.68,75.85,75,32,3.13,SS,1594401107
Ussuriysk,43.8,131.95,66.2,93,100,4.47,RU,1594401107
Maragogi,-9.01,-35.22,79.77,76,1,11.83,BR,1594401108
Doha,25.29,51.53,99.0,79,76,5.82,QA,1594401108
Kirkwall,58.98,-2.96,57.2,67,20,13.87,GB,1594401109
Mananjary,-21.22,48.33,68.02,84,18,6.26,MG,1594401109
Bredasdorp,-34.53,20.04,55.4,76,93,8.05,ZA,1594401109
Winnemucca,40.97,-117.74,77.0,20,1,3.36,US,1594400947
Cherskiy,68.75,161.3,49.73,89,5,8.95,RU,1594400841
Lárdos,36.09,28.02,78.8,78,0,18.34,GR,1594401110
Guerrero Negro,27.98,-114.06,81.95,34,56,8.34,MX,1594400944
Byron Bay,-28.65,153.62,55.0,93,86,5.12,AU,1594401111
Sokoto,13.06,5.24,96.04,35,100,7.85,NG,1594401112
Saskylakh,71.92,114.08,55.76,64,100,16.02,RU,1594401112
Severo-Kuril'sk,50.68,156.12,49.39,94,100,5.26,RU,1594401112
Erzin,36.96,36.2,81.0,80,2,2.04,TR,1594401113
Esperance,-33.87,121.9,48.2,93,90,3.36,AU,1594400827
Myitkyina,25.38,97.4,75.0,96,100,1.34,MM,1594401114
Pangody,65.85,74.49,58.71,68,0,11.39,RU,1594401114
Adrar,20.5,-10.07,107.31,6,33,4.43,MR,1594401115
Río Tercero,-32.17,-64.11,63.0,44,97,7.23,AR,1594401115
Muli,2.92,73.57,84.29,75,100,9.1,MV,1594401115
Laguna,38.42,-121.42,84.2,49,1,3.36,US,1594400856
Maltahöhe,-24.83,16.98,49.98,69,31,30.94,NA,1594401116
Cravo Norte,6.3,-70.2,83.79,77,66,6.26,CO,1594401117
Bartica,6.4,-58.62,87.8,66,75,2.24,GY,1594401117
Chegutu,-18.13,30.14,68.4,49,90,3.42,ZW,1594401117
Dvurechensk,56.6,61.1,80.6,61,8,4.65,RU,1594401118
Birao,10.28,22.79,77.07,78,34,5.5,CF,1594401118
Beidao,34.57,105.89,67.53,84,100,1.23,CN,1594401119
Tuy Hoa,13.08,109.3,79.43,84,87,5.08,VN,1594401119
Gogrial,8.53,28.1,79.23,69,76,3.4,SS,1594401119
Port Alfred,-33.59,26.89,62.01,92,72,1.99,ZA,1594401120
Mar del Plata,-38.0,-57.56,48.99,93,90,12.75,AR,1594401120
Ayan,56.45,138.17,49.87,97,100,2.04,RU,1594401121
Juradó,7.11,-77.76,80.94,83,100,8.14,CO,1594401121
Saint-Pierre,-21.34,55.48,69.8,64,0,11.41,RE,1594401121
Ndélé,8.41,20.65,73.4,89,74,3.2,CF,1594401122
Castro,-24.79,-50.01,67.98,39,23,5.41,BR,1594401122
São Félix do Xingu,-6.64,-51.99,92.19,30,77,5.59,BR,1594401123
Alugan,12.22,125.48,81.7,81,96,6.17,PH,1594401123
Philadelphia,39.95,-75.16,73.99,94,90,17.22,US,1594400871
Aberdeen,57.14,-2.1,57.99,76,75,6.93,GB,1594401123
Erdenet,49.03,104.08,51.89,84,51,2.51,MN,1594401125
Yerofey Pavlovich,53.97,121.97,63.7,79,23,3.29,RU,1594401126
Sioux Lookout,50.1,-91.92,68.0,72,75,12.75,CA,1594401126
Margate,51.38,1.39,66.0,53,8,1.99,GB,1594400844
Ancud,-41.87,-73.82,43.0,92,55,1.01,CL,1594401128
Udon Thani,17.42,102.79,81.55,78,100,4.21,TH,1594401128
Beringovskiy,63.05,179.32,51.84,81,94,1.14,RU,1594401129
Vardø,70.37,31.11,46.4,93,75,8.05,NO,1594401129
Vestmanna,62.16,-7.17,50.0,76,89,11.41,FO,1594401129
Villazón,-22.09,-65.59,54.57,23,0,6.67,BO,1594401130
Vanimo,-2.67,141.3,78.08,84,54,4.23,PG,1594401130
Alzamay,55.56,98.66,67.93,67,77,6.42,RU,1594401131
Sestri Levante,44.27,9.4,78.01,69,0,3.6,IT,1594401132
Tuktoyaktuk,69.45,-133.04,39.2,93,90,10.29,CA,1594401133
Praia,14.92,-23.51,87.8,58,20,13.87,CV,1594401133
São Filipe,14.9,-24.5,75.79,79,63,10.4,CV,1594401133
Rivadavia,-33.19,-68.46,53.6,54,100,1.77,AR,1594401134
Sterlibashevo,53.44,55.26,75.96,66,2,2.37,RU,1594401135
Talnakh,69.49,88.4,57.2,71,15,24.61,RU,1594401135
Hamilton,39.18,-84.53,88.0,66,20,10.29,US,1594401031
Lüderitz,-26.65,15.16,57.2,93,54,17.22,NA,1594401136
Marsh Harbour,26.54,-77.06,87.17,68,68,10.85,BS,1594401136
Luang Prabang,19.89,102.13,75.9,87,100,1.68,LA,1594401137
Vostok,46.49,135.88,49.68,100,0,2.64,RU,1594401137
Dingle,11.0,122.67,78.84,84,100,1.54,PH,1594401138
Lodja,-3.48,23.43,84.63,31,41,1.25,CD,1594401138
Prince Rupert,54.32,-130.32,53.6,100,90,6.93,CA,1594401138
Kamenka,51.32,42.77,72.0,49,27,5.01,RU,1594401139
Nan,18.83,100.67,75.34,93,100,0.87,TH,1594401139
Tigil',57.8,158.67,53.4,96,99,4.16,RU,1594401140
Fortuna,40.6,-124.16,60.01,93,90,6.35,US,1594401140
Chui,-33.7,-53.46,55.81,70,90,10.71,UY,1594401140
Tura,25.52,90.22,75.15,98,100,7.78,IN,1594400841
Harper,4.38,-7.72,78.35,76,82,13.15,LR,1594401141
Kununurra,-15.77,128.73,64.4,36,59,4.7,AU,1594401141
Denizli Province,37.84,29.07,86.0,28,0,8.05,TR,1594401142
Saint Paul Harbor,57.79,-152.41,53.6,81,1,4.7,US,1594400976
Pokhara,28.23,83.98,72.84,87,100,1.66,NP,1594401142
Paita,-5.09,-81.11,68.0,77,40,17.22,PE,1594401143
Araouane,18.9,-3.53,105.08,18,37,7.78,ML,1594401143
Benjamin Constant,-4.38,-70.03,80.6,83,75,3.36,BR,1594401144
Cayenne,4.93,-52.33,87.8,70,40,5.82,GF,1594400875
Osmeña,10.52,119.93,84.09,73,100,6.51,PH,1594401144
Sungai Raya,0.7,108.9,75.94,88,100,3.15,ID,1594401145
Vila Velha,-20.33,-40.29,75.99,64,40,17.22,BR,1594401145
Codrington,-38.27,141.97,47.48,87,100,6.31,AU,1594400853
Hervey Bay,-25.3,152.85,61.0,92,38,4.0,AU,1594401146
Hay River,60.82,-115.8,64.4,77,75,9.17,CA,1594401146
Iqaluit,63.75,-68.51,44.6,81,75,8.05,CA,1594401147
Bulawayo,-20.15,28.58,64.6,45,54,6.4,ZW,1594401147
Pisco,-13.7,-76.22,64.99,63,20,8.05,PE,1594401147
Sarangani,5.4,125.46,83.12,76,86,12.59,PH,1594401148
Mehamn,71.04,27.85,46.4,87,90,11.41,NO,1594401148
Cabedelo,-6.98,-34.83,82.4,69,40,14.99,BR,1594401111
Homer,59.64,-151.55,57.2,82,20,4.7,US,1594401037
Katsuura,35.13,140.3,80.01,93,98,8.99,JP,1594401150
Brignoles,43.4,6.07,84.2,48,94,12.75,FR,1594401150
Mayo,38.89,-76.51,84.99,74,40,13.87,US,1594401151
Mandera,3.94,41.87,85.91,46,92,17.96,KE,1594401151
Shingū,33.73,135.98,74.57,95,100,5.88,JP,1594401151
Boké,10.94,-14.3,81.72,81,95,9.1,GN,1594401152
Tsabong,-26.02,22.4,65.68,25,0,11.52,BW,1594401152
Grindavik,63.84,-22.43,50.0,71,75,9.17,IS,1594401153
Kushmurun,52.45,64.63,79.23,61,0,6.51,KZ,1594401153
Lichinga,-13.31,35.24,61.72,70,32,3.11,MZ,1594401153
Arrondissement de Figeac,44.75,1.92,75.0,65,0,1.99,FR,1594401154
Bandarbeyla,9.49,50.81,79.2,77,86,33.96,SO,1594401154
Thompson,55.74,-97.86,62.6,67,90,11.41,CA,1594401155
Salalah,17.02,54.09,82.4,88,40,6.93,OM,1594401155
Padang,-0.95,100.35,77.52,82,94,4.65,ID,1594400944
Bluff,-46.6,168.33,49.68,73,99,23.53,NZ,1594401156
Hasaki,35.73,140.83,80.01,88,75,9.17,JP,1594401156
Forsytheganj,52.63,29.73,69.35,86,55,9.95,BY,1594401157
Southbridge,42.08,-72.03,81.0,75,100,10.04,US,1594400867
Charlestown,-32.95,151.67,55.0,96,100,6.96,AU,1594401158
Stari Banovci,44.99,20.29,87.8,40,0,8.05,RS,1594401158
St. George's,12.06,-61.75,87.8,66,20,19.46,GD,1594401159
Ouargaye,11.5,0.06,87.75,52,78,9.31,BF,1594401159
Taksimo,56.34,114.88,63.16,84,15,1.3,RU,1594401159
Novobiryusinskiy,56.96,97.71,62.67,95,100,10.83,RU,1594401160
Pine Bluff,34.23,-92.0,89.01,58,1,6.93,US,1594401160
Jieshi,22.81,115.83,82.96,86,99,10.33,CN,1594401161
Nome,64.5,-165.41,59.0,71,1,5.82,US,1594401161
Makakilo City,21.35,-158.09,78.8,73,1,5.82,US,1594401161
Carballo,43.21,-8.69,71.6,56,40,16.11,ES,1594401162
Platteville,42.73,-90.48,79.0,65,1,12.75,US,1594401162
Pandan,14.05,124.17,81.18,84,98,6.04,PH,1594401163
Mae Sai,20.43,99.88,80.6,94,40,1.12,TH,1594401163
Virginia Beach,36.85,-75.98,89.6,55,40,10.29,US,1594401062
Matagami,49.75,-77.63,84.2,54,90,11.41,CA,1594401164
Belaya Gora,68.53,146.42,57.2,76,0,2.75,RU,1594401164
Charters Towers,-20.1,146.27,59.83,96,1,7.56,AU,1594401165
Garoowe,8.41,48.48,88.45,40,85,16.87,SO,1594401165
Nemuro,43.32,145.57,58.35,86,92,2.19,JP,1594401165
Zabaykal'sk,49.63,117.32,65.32,70,0,9.33,RU,1594401166
Palmer,42.16,-72.33,84.99,65,75,9.17,US,1594401167
Mayor Pablo Lagerenza,-19.93,-60.77,89.13,33,58,19.24,PY,1594401167
Lavrentiya,65.58,-171.0,52.66,70,98,2.01,RU,1594401167
Bath,51.38,-2.36,64.99,61,59,5.99,GB,1594401168
Alghero,40.56,8.32,89.6,40,72,3.36,IT,1594401168
Nyurba,63.28,118.33,64.38,76,89,6.69,RU,1594401169
Chiang Khong,20.26,100.4,71.01,99,100,0.85,TH,1594401169
Vila,42.03,-8.16,84.2,39,1,14.99,PT,1594401170
Ubari,26.59,12.78,97.3,13,0,12.1,LY,1594401170
Naushahro Firoz,26.84,68.12,101.16,42,4,19.93,PK,1594400886
Sitka,57.05,-135.33,53.6,93,90,4.7,US,1594400932
Abu Kamal,34.45,40.92,92.25,21,62,2.8,SY,1594401171
Hobyo,5.35,48.53,78.6,79,76,26.89,SO,1594401172
Belmonte,-15.86,-38.88,78.8,65,40,5.82,BR,1594401172
Ilabaya,-17.42,-70.51,71.55,22,79,8.23,PE,1594401172
Lucapa,-8.42,20.74,79.05,21,38,2.17,AO,1594401173
Chapleau,47.84,-83.4,68.0,100,90,6.93,CA,1594401173
Mahajanga,-15.72,46.32,80.6,47,20,13.87,MG,1594401173
Fairbanks,64.84,-147.72,55.4,71,1,3.36,US,1594401174
Markova,48.68,24.41,82.4,48,0,8.95,UA,1594401174
Broome,42.25,-75.83,82.99,61,20,12.75,US,1594401175
Goderich,43.75,-81.72,86.0,72,19,8.93,CA,1594401175
Chifeng,42.27,118.96,69.46,67,81,4.18,CN,1594401175
Tasiilaq,65.61,-37.64,44.6,75,75,4.7,GL,1594401176
Niagara Falls,43.1,-79.07,93.0,46,1,11.41,CA,1594401177
Yamada,39.47,141.95,67.96,92,100,3.4,JP,1594401177
Ejido,8.55,-71.24,81.97,39,68,5.86,VE,1594401177
Noumea,-22.28,166.46,66.99,71,62,1.12,NC,1594401178
Miles City,46.41,-105.84,80.6,47,1,14.99,US,1594401153
Pokoynoye,44.81,44.25,77.72,46,55,7.47,RU,1594401178
Verkhoyansk,67.54,133.38,57.02,63,0,2.33,RU,1594401179
Viedma,-40.81,-63.0,48.04,53,68,20.4,AR,1594400930
Buin,-33.73,-70.75,53.6,66,90,5.82,CL,1594401180
Port Lincoln,-34.73,135.87,50.11,75,62,12.44,AU,1594401180
Yulara,-25.24,130.99,48.2,61,20,4.7,AU,1594401180
Tabory,58.52,64.55,75.87,73,12,4.72,RU,1594401181
Tupik,54.43,119.93,62.17,56,17,3.2,RU,1594401181
Zhangye,38.93,100.45,79.56,17,100,2.53,CN,1594401182
Provideniya,64.38,-173.3,56.17,65,95,5.93,RU,1594401182
Stroud,51.75,-2.2,66.0,59,40,8.05,GB,1594401182
Clyde River,70.47,-68.59,62.6,42,75,10.29,CA,1594401183
Kuzhithurai,8.32,77.18,82.4,74,75,4.7,IN,1594401183
Acapulco de Juárez,16.86,-99.89,87.8,74,40,9.17,MX,1594401184
Magdiwang,12.49,122.51,82.98,75,100,2.62,PH,1594401184
Port Hardy,50.7,-127.42,57.2,87,75,4.7,CA,1594401184
Yangi Marg`ilon,40.43,71.72,80.6,30,99,9.17,UZ,1594401185
Bukama,-9.2,25.85,80.28,29,13,1.86,CD,1594401185
Kalianget,-7.05,113.93,80.37,77,62,10.67,ID,1594401186
Juneau,58.3,-134.42,55.4,87,90,8.05,US,1594401186
Ayagoz,47.97,80.44,69.4,49,0,6.44,KZ,1594401186
Aiken,33.58,-81.6,91.99,55,40,8.05,US,1594401187
Wellington,-41.29,174.78,46.99,93,24,10.29,NZ,1594401073
Pangkalanbuun,-2.68,111.62,73.63,98,98,1.5,ID,1594401188
Hammerfest,70.66,23.68,46.4,87,75,19.46,NO,1594401188
Maţāy,28.42,30.78,92.53,23,0,7.16,EG,1594401188
Yerbogachën,61.28,108.01,55.98,90,46,2.91,RU,1594401189
Tabou,4.42,-7.35,78.48,76,36,13.58,CI,1594401189
San Rafael del Sur,11.85,-86.44,86.0,70,75,6.93,NI,1594401190
Paamiut,61.99,-49.67,42.42,97,100,9.01,GL,1594401190
Juegang,32.32,121.19,71.28,92,73,8.52,CN,1594401190
Patiya,22.29,91.98,82.4,94,75,5.82,BD,1594401191
Naze,28.37,129.48,82.4,94,90,8.05,JP,1594401191
Namatanai,-3.67,152.43,79.16,76,99,5.88,PG,1594401191
Waycross,31.21,-82.35,91.0,49,40,4.88,US,1594400998
Karratha,-20.74,116.85,68.14,28,0,13.24,AU,1594401192
Rocha,-34.48,-54.33,56.62,65,100,14.23,UY,1594401193
Biltine,14.53,20.92,77.7,72,82,28.43,TD,1594401193
Hachinohe,40.5,141.5,66.2,100,75,5.82,JP,1594401194
Puerto Escondido,15.85,-97.07,86.0,74,40,4.7,MX,1594401194
Poronaysk,49.22,143.12,50.63,95,35,1.43,RU,1594401194
Roebourne,-20.78,117.13,68.14,30,0,13.51,AU,1594401195
Half Moon Bay,37.46,-122.43,68.0,93,90,9.17,US,1594401195
Châlons-en-Champagne,48.95,4.37,73.4,46,98,12.75,FR,1594401196
Kidal,18.44,1.41,85.87,44,96,5.61,ML,1594401196
Isangel,-19.55,169.27,70.32,82,21,17.6,VU,1594401196
Killybegs,54.63,-8.45,59.0,72,40,14.99,IE,1594401197
Kavaratti,10.57,72.64,82.44,74,100,10.65,IN,1594401197
Roald,62.58,6.13,55.4,66,75,16.11,NO,1594401197
Beloha,-25.17,45.05,69.55,56,0,8.99,MG,1594401198
Vila Franca do Campo,37.72,-25.43,71.64,67,55,4.52,PT,1594401198
San Jose,37.34,-121.89,78.01,44,68,1.01,US,1594401158
Airai,-8.93,125.41,57.13,100,27,3.65,TL,1594401140
Sabang,5.89,95.32,82.62,73,100,2.64,ID,1594401199
Rundu,-17.93,19.77,80.6,13,0,9.17,NA,1594401200
Lagoa,39.05,-27.98,68.27,74,16,5.35,PT,1594401200
Kutum,14.2,24.67,78.04,47,96,5.26,SD,1594401200
Halmstad,56.67,12.86,55.99,82,20,1.12,SE,1594401201
Tamale,9.4,-0.84,81.54,71,85,6.98,GH,1594401201
Departamento de Maldonado,-34.67,-54.92,59.0,71,100,11.41,UY,1594401202
Iaciara,-14.1,-46.63,88.84,31,11,6.58,BR,1594401202
Cañon City,38.44,-105.24,82.99,45,1,17.22,US,1594400954
Carauari,-4.88,-66.9,87.3,64,16,4.03,BR,1594401203
Øksfjord,70.24,22.35,51.8,66,40,10.29,NO,1594401203
Jonesboro,35.84,-90.7,90.0,58,1,9.17,US,1594401204
Los Llanos de Aridane,28.66,-17.92,75.2,73,40,16.11,ES,1594401204
Burns Lake,54.23,-125.75,58.24,52,98,4.16,CA,1594401035
San Carlos del Zulia,9.0,-71.91,88.92,59,78,3.96,VE,1594401205
Port Augusta,-32.5,137.77,44.6,100,68,9.17,AU,1594401205
Opuwo,-18.06,13.84,62.89,27,2,10.13,NA,1594401205
Revda,56.8,59.93,80.6,61,32,4.36,RU,1594401206
Brookhaven,31.58,-90.44,89.01,81,87,7.94,US,1594401045
Nioro,13.35,-15.75,90.5,52,99,12.19,GM,1594401206
Hofn,64.25,-15.21,57.2,62,40,20.8,IS,1594400962
Sherlovaya Gora,50.57,116.25,66.65,64,11,15.21,RU,1594401208
Nikolskoye,59.7,30.79,66.0,77,90,2.24,RU,1594401209
Pictou,45.68,-62.72,84.99,72,8,4.0,CA,1594401209
Tuatapere,-46.13,167.68,45.54,81,90,5.95,NZ,1594401209
Patacamaya,-17.23,-67.92,53.19,32,96,6.11,BO,1594401210
Luganville,-15.53,167.17,77.43,83,77,15.9,VU,1594401210
Chilca,-12.52,-76.74,62.6,77,90,9.17,PE,1594401211
Caraquet,47.79,-64.94,78.8,69,1,8.05,CA,1594401200
Troitsko-Pechorsk,62.71,56.2,67.84,94,84,6.87,RU,1594401211
Luena,-11.78,19.92,68.99,30,22,2.84,AO,1594401212
Dul'durga,50.68,113.59,61.47,84,56,2.06,RU,1594401213
Jiwani,25.05,61.74,85.98,83,22,7.76,PK,1594401213
Aktobe,50.28,57.21,86.0,28,0,4.47,KZ,1594401214
Khuzhir,53.19,107.34,51.78,91,80,1.54,RU,1594401214
Wattegama,6.8,81.48,77.0,85,85,4.03,LK,1594401215
Isla Mujeres,21.23,-86.73,89.6,66,40,11.41,MX,1594401215
Ilulissat,69.22,-51.1,42.8,87,75,12.75,GL,1594401215
Japura,-0.32,102.35,73.94,83,100,1.79,ID,1594401216
Kumul,42.8,93.45,83.03,19,100,3.6,CN,1594401216
Kemijärvi,66.71,27.43,54.84,85,91,5.1,FI,1594401216
Gornopravdinsk,60.05,69.9,60.28,70,30,0.94,RU,1594401217
Aguçadoura,41.43,-8.78,87.01,61,1,8.05,PT,1594401217
Benton,36.33,-94.33,81.0,74,20,3.36,US,1594400950
Marathon,44.9,-89.77,79.0,54,20,8.05,US,1594401218
Atar,20.52,-13.05,110.44,7,0,7.81,MR,1594401218
Ranau,5.95,116.66,77.0,94,20,4.7,MY,1594401057
Homnābād,17.77,77.13,75.13,86,100,11.95,IN,1594401220
Kokopo,-4.35,152.26,77.61,78,98,6.4,PG,1594401220
Esim,4.87,-2.24,77.5,81,71,12.08,GH,1594401221
Bilma,18.69,12.92,100.29,16,91,8.95,NE,1594401222
Ibrā’,22.69,58.53,92.19,36,62,8.88,OM,1594401222
Deputatsky,69.3,139.9,48.81,84,47,1.83,RU,1594401222
Yatou,37.15,122.38,68.58,81,55,3.09,CN,1594401223
Olafsvik,64.89,-23.71,50.95,76,100,9.37,IS,1594401223
Dafeng,23.45,108.59,80.29,86,100,6.67,CN,1594401224
Tiksi,71.69,128.87,37.89,92,75,8.12,RU,1594401224
Kaitangata,-46.28,169.85,43.0,65,100,8.25,NZ,1594401224
Kindu,-2.95,25.95,85.01,41,49,2.01,CD,1594401225
Bria,6.54,21.99,72.39,89,100,1.81,CF,1594401225
Dillon,34.42,-79.37,90.0,74,75,3.36,US,1594401225
Madera,37.17,-119.83,91.0,21,69,1.99,US,1594401019
Luga,58.74,29.85,57.09,87,100,6.73,RU,1594401226
Le Moule,16.33,-61.35,89.6,55,40,14.99,GP,1594401227
Vincennes,48.85,2.43,75.0,40,84,11.41,FR,1594401227
Caernarfon,53.14,-4.27,61.0,63,0,11.41,GB,1594401227
Vanavara,60.34,102.28,57.88,73,97,4.61,RU,1594401228
Leningradskiy,69.38,178.42,42.35,86,14,8.88,RU,1594401228
Amga,60.9,131.96,52.07,95,82,3.76,RU,1594401228
Kargasok,59.06,80.86,60.1,82,54,9.26,RU,1594401229
Taylor,32.3,-99.83,95.0,49,1,10.29,US,1594401229
Keelung,25.13,121.74,87.8,70,75,1.12,TW,1594401230
Parkes,-33.13,148.18,53.01,86,100,1.01,AU,1594401230
Wuning,29.26,120.23,74.37,94,100,1.3,CN,1594401230
Minsk,53.9,27.57,68.0,88,75,11.18,BY,1594401150
Tyukhtet,56.54,89.3,51.62,95,28,8.95,RU,1594401231
Touros,-5.2,-35.46,84.2,70,40,13.87,BR,1594401232
Bubaque,11.28,-15.83,81.95,79,99,16.08,GW,1594401232
Elbistan,38.21,37.2,81.81,32,65,11.7,TR,1594401232
Carutapera,-1.2,-46.02,82.29,81,7,9.22,BR,1594401233
Sinnamary,5.38,-52.95,83.01,80,53,10.65,GF,1594401233
Kahului,20.89,-156.47,78.8,61,40,14.99,US,1594401188
Onguday,50.75,86.15,59.86,81,71,2.1,RU,1594401234
Kitgum,3.28,32.89,69.37,87,78,1.66,UG,1594401234
Outjo,-20.12,16.15,61.97,27,0,14.74,NA,1594401235
Bischofswerda,51.13,14.18,75.99,59,62,8.99,DE,1594401235
Miyako,39.64,141.95,67.75,92,100,2.75,JP,1594401236
Nantucket,41.28,-70.1,71.6,94,90,11.41,US,1594401236
Camabatela,-8.19,15.38,74.89,40,89,7.2,AO,1594401237
Hong Kong,22.29,114.16,86.0,70,100,11.99,HK,1594401110
Jardín,5.6,-75.82,70.0,70,92,2.15,CO,1594401238
Mount Isa,-20.73,139.5,66.2,48,65,13.87,AU,1594401238
Jalu,29.03,21.55,95.7,18,0,10.16,LY,1594401239
Mocuba,-16.84,36.99,68.41,86,8,4.5,MZ,1594401239
Bagé,-31.33,-54.11,66.2,45,0,12.75,BR,1594401239
Ous,60.91,61.52,76.91,64,74,5.19,RU,1594401240
Andenes,69.31,16.12,53.6,66,89,5.82,NO,1594401240
Vágur,61.47,-6.81,49.6,77,46,11.5,FO,1594401240
Malé,4.17,73.51,86.0,79,75,10.29,MV,1594401241
Beruwala,6.48,79.98,81.25,83,99,8.41,LK,1594401241
Djibouti,11.5,42.5,102.2,20,20,11.41,DJ,1594401242
Zhangjiakou,40.81,114.88,64.36,87,56,4.36,CN,1594401182
Mugur-Aksy,50.35,90.5,54.45,51,57,5.17,RU,1594401242
Abu Samrah,35.3,37.18,84.47,45,0,14.88,SY,1594401243
Shubarkuduk,49.14,56.49,84.36,35,0,4.03,KZ,1594401243
Rexburg,43.83,-111.79,69.8,46,1,13.87,US,1594401244
Maniitsoq,65.42,-52.9,39.88,90,72,3.8,GL,1594401244
Villefranche-sur-Saône,45.98,4.72,80.01,50,50,8.01,FR,1594401245
Kichera,55.94,110.1,64.67,74,92,5.17,RU,1594401245
Macao,22.2,113.55,86.0,89,40,9.17,MO,1594401167
Izvoarele Sucevei,47.75,25.18,66.0,10,37,2.33,RO,1594401246
Petatlán,17.52,-101.27,89.6,59,40,9.17,MX,1594401246
Orlik,52.52,99.83,54.75,65,79,3.09,RU,1594401247
Meylan,45.22,5.79,80.6,51,31,11.41,FR,1594401247
Renqiu,38.7,116.09,75.99,75,89,3.67,CN,1594401248
Pokhvistnevo,53.65,52.13,77.27,63,69,0.25,RU,1594401248
Koshurnikovo,54.17,93.3,54.1,100,100,5.64,RU,1594401248
Itarema,-2.92,-39.92,84.0,66,42,16.42,BR,1594401249
Zuénoula,7.43,-6.04,82.33,68,85,3.49,CI,1594401250
Inhambane,-23.86,35.38,71.6,83,20,14.99,MZ,1594401250
Portobelo,9.55,-79.65,91.0,66,40,8.05,PA,1594401251
Haines Junction,60.75,-137.51,60.33,45,78,2.3,CA,1594401251
Waipawa,-41.41,175.52,44.6,87,0,11.41,NZ,1594401252
Humen,22.82,113.67,86.0,84,75,15.66,CN,1594401252
Mareeba,-17.0,145.43,69.8,88,75,8.05,AU,1594401252
Belle Fourche,44.67,-103.85,78.01,58,2,5.01,US,1594401069
Bariloche,-41.15,-71.31,37.4,51,40,12.75,AR,1594401253
Acaraú,-2.89,-40.12,84.29,66,42,16.49,BR,1594401254
Shirokiy,49.76,129.52,60.91,95,38,7.56,RU,1594401254
Makokou,0.57,12.86,74.35,90,75,2.24,GA,1594401254
Jumla,29.27,82.18,61.27,71,67,2.44,NP,1594401255
Kayerkan,69.35,87.76,57.2,71,30,24.61,RU,1594401255
Pingzhuang,42.04,119.29,68.85,50,74,5.61,CN,1594401255
Eyl,7.98,49.82,80.17,71,80,30.8,SO,1594401256
Aitape,-3.14,142.35,78.46,83,88,4.92,PG,1594401256
Lahaina,20.88,-156.68,78.8,61,40,14.99,US,1594401257
Lompoc,34.64,-120.46,72.0,60,48,11.41,US,1594401203
Tukan,53.84,57.46,69.69,90,1,2.24,RU,1594401257
Zyryanka,65.75,150.85,56.64,88,93,10.63,RU,1594401258
Camaná,-16.62,-72.71,65.16,64,26,10.02,PE,1594401258
Sijunjung,-0.69,100.95,72.48,88,69,0.98,ID,1594401259
North Bend,43.41,-124.22,66.0,82,90,8.05,US,1594401056
Jinchang,38.5,102.17,79.07,17,100,3.06,CN,1594401259
Batemans Bay,-35.72,150.18,44.01,89,62,1.99,AU,1594401260
Hualmay,-11.1,-77.61,67.37,65,53,11.48,PE,1594401260
Anchorage,61.22,-149.9,60.8,82,90,5.82,US,1594400972
Trat,12.5,102.5,79.25,87,90,1.03,TH,1594401261
São João da Barra,-21.64,-41.05,73.4,64,75,11.41,BR,1594401261
Bollnäs,61.35,16.39,68.0,53,54,3.0,SE,1594401262
Lazarev,52.23,141.51,49.86,97,100,10.2,RU,1594401262
Klaksvík,62.23,-6.59,50.0,76,88,11.41,FO,1594401262
Gorontalo,0.54,123.06,74.5,89,100,1.66,ID,1594401263
Natchitoches,31.77,-93.13,91.4,63,75,6.8,US,1594401263
Muncie,40.19,-85.39,82.4,65,40,19.46,US,1594401122
Vestmannaeyjar,63.44,-20.27,53.6,71,40,19.46,IS,1594401264
Campo Verde,-20.42,-54.07,84.2,45,9,12.75,BR,1594401264
Merauke,-8.47,140.33,77.7,87,43,14.76,ID,1594401265
Port Blair,11.67,92.75,82.29,81,100,9.35,IN,1594401265
Peniche,39.36,-9.38,77.0,74,0,11.99,PT,1594401266
Moche,-8.17,-79.01,67.08,71,71,6.78,PE,1594401266
Mattru,7.62,-11.83,74.12,95,100,5.66,SL,1594401266
Shache,38.42,77.24,80.94,16,74,7.81,CN,1594401267
Hoquiam,46.98,-123.89,61.0,67,90,6.93,US,1594401103
Semey,50.41,80.23,68.83,79,90,8.46,KZ,1594401106
Ouro Preto do Oeste,-10.75,-62.22,89.06,43,0,4.54,BR,1594401268
Alyangula,-13.85,136.42,78.8,65,90,4.7,AU,1594401268
Abhā,18.22,42.51,75.2,69,20,11.41,SA,1594401269
Beaverlodge,55.22,-119.44,62.6,59,75,18.34,CA,1594401269
Khatanga,71.97,102.5,55.33,74,100,16.8,RU,1594401270
Maceió,-9.67,-35.74,82.4,61,75,11.41,BR,1594401254
Dubna,56.73,37.17,63.01,71,39,4.05,RU,1594401008
Pryazha,61.69,33.62,66.2,39,3,11.18,RU,1594401271
Anadyr,64.75,177.48,51.8,93,100,2.24,RU,1594401271
Santa Cruz de La Palma,28.68,-17.76,75.2,73,40,16.11,ES,1594401272
Mabamba,-3.6,30.5,73.08,48,76,3.67,TZ,1594401272
Ciechanów,52.88,20.62,80.6,57,99,9.17,PL,1594401272
Avera,33.19,-82.53,90.0,59,1,5.82,US,1594401273
Igarka,67.47,86.58,60.37,60,43,7.49,RU,1594401273
Forio,40.73,13.86,82.99,69,20,6.93,IT,1594401274
Borovskoy,53.8,64.15,76.57,68,0,5.14,KZ,1594401274
Surab,28.49,66.26,78.76,15,0,9.04,PK,1594401274
San Jerónimo,-11.95,-75.28,54.37,50,88,2.35,PE,1594401275
Upington,-28.45,21.26,55.4,71,40,23.04,ZA,1594401275
Effingham County,32.37,-81.33,93.0,55,75,5.5,US,1594401276
Chicama,-7.84,-79.15,71.22,59,77,9.28,PE,1594401276
Ambilobe,-13.2,49.05,71.06,55,22,7.05,MG,1594401277
Samarai,-10.62,150.67,77.95,88,99,15.61,PG,1594401277
Mount Darwin,-16.77,31.58,69.58,56,78,3.71,ZW,1594401277
Llaillay,-32.85,-70.97,57.2,87,96,2.24,CL,1594401278
Amparafaravola,-17.58,48.22,57.67,85,35,9.57,MG,1594401278
Presidente Médici,-11.18,-61.9,91.96,35,0,4.83,BR,1594401279
Jalingo,8.88,11.37,79.75,80,89,4.5,NG,1594401279
Maridi,4.92,29.47,70.25,92,90,3.44,SS,1594401279
Bang Saphan,11.21,99.51,79.23,84,100,6.26,TH,1594401280
Guéret,46.17,1.87,73.0,60,75,6.93,FR,1594401281
Bairiki Village,1.33,172.98,82.4,74,75,9.17,KI,1594401281
Havre-St-Pierre,50.23,-63.6,68.0,77,75,6.93,CA,1594401281
Dzaoudzi,-12.79,45.27,77.0,73,20,9.17,YT,1594401282
Gimli,50.63,-96.99,75.99,94,4,5.01,CA,1594401009
Umluj,25.02,37.27,83.21,66,0,6.78,SA,1594401283
Terrace Bay,48.78,-87.1,64.4,93,90,3.36,CA,1594401283
Chik,54.99,82.43,59.0,87,40,4.47,RU,1594401284
Atambua,-9.11,124.89,70.25,89,26,5.08,ID,1594401284
Jacareacanga,-6.22,-57.75,94.23,34,0,4.81,BR,1594401285
Labuhan,-6.88,112.21,76.51,83,69,7.56,ID,1594401285
Zhangaözen,43.3,52.8,90.03,16,88,4.56,KZ,1594401285
Oyama,36.3,139.8,82.0,88,75,12.75,JP,1594401286
Aksarka,66.56,67.8,61.32,55,16,4.12,RU,1594401286
Santa Barbara,34.42,-119.7,64.4,82,75,8.05,US,1594401286
Coquimbo,-29.95,-71.34,59.0,72,47,9.17,CL,1594401288
Cockburn Town,21.46,-71.14,86.0,66,40,14.99,TC,1594401288
Felanitx,39.47,3.15,93.2,43,20,6.93,ES,1594401289
Qūchān,37.11,58.51,76.68,31,21,11.68,IR,1594401289
Russell,32.35,-85.2,91.4,59,40,4.7,US,1594401290
Enshi,30.3,109.48,70.86,86,100,1.72,CN,1594401290
Liverpool,53.41,-2.98,61.0,63,20,19.46,GB,1594401124
Esso,55.93,158.7,53.55,81,100,2.1,RU,1594401291
Kourou,5.16,-52.65,87.8,70,40,5.82,GF,1594401171
Chumikan,54.72,135.31,48.27,96,94,7.83,RU,1594401292
Caracollo,-14.92,-70.66,54.55,37,89,7.29,PE,1594401292
Domoni,-12.26,44.53,74.62,74,72,2.19,KM,1594401292
Mabaruma,8.2,-59.78,81.82,85,100,6.51,GY,1594401293
Chase,50.82,-119.69,64.4,55,20,4.7,CA,1594401294
Port Loko,8.77,-12.78,84.2,74,75,8.05,SL,1594401294
Agirish,61.92,63.02,80.38,49,96,5.28,RU,1594401294
Szczytno,53.56,20.99,73.4,69,40,9.17,PL,1594401295
Nokaneng,-19.67,22.27,68.18,25,0,4.52,BW,1594401295
Yakima,46.47,-120.67,73.0,45,1,3.36,US,1594401295
